{
  "type": "FeatureCollection",
  "features": [
    {
      "geometry": {
        "type": "Point",
        "coordinates": [
          8.8100783,
          53.0816101
        ]
      },
      "type": "Feature",
      "properties": {
        "Tr\u00e4ger": "ASB",
        "marker-color": "7d1619",
        "Adresse": "Philosophenweg",
        "Name": "",
        "Internet": "unbekannt"
      }
    },
    {
      "geometry": {
        "type": "Point",
        "coordinates": [
          8.8209784,
          53.0772618
        ]
      },
      "type": "Feature",
      "properties": {
        "Tr\u00e4ger": "ASB",
        "marker-color": "7d1619",
        "Adresse": "Eduard-Grunow Stra\u00dfe",
        "Name": "",
        "Internet": "unbekannt"
      }
    },
    {
      "geometry": {
        "type": "Point",
        "coordinates": [
          8.9397155,
          53.0650885
        ]
      },
      "type": "Feature",
      "properties": {
        "Tr\u00e4ger": "ASB",
        "marker-color": "7d1619",
        "Adresse": "Osterholzer Landstra\u00dfe",
        "Name": "",
        "Internet": "unbekannt"
      }
    },
    {
      "geometry": {
        "type": "Point",
        "coordinates": [
          8.6516699,
          53.1712224
        ]
      },
      "type": "Feature",
      "properties": {
        "Tr\u00e4ger": "ASB",
        "marker-color": "7d1619",
        "Adresse": "Steingutstra\u00dfe",
        "Name": "",
        "Internet": "unbekannt"
      }
    },
    {
      "geometry": {
        "type": "Point",
        "coordinates": [
          8.6262057,
          53.1745464
        ]
      },
      "type": "Feature",
      "properties": {
        "Tr\u00e4ger": "ASB",
        "marker-color": "7d1619",
        "Adresse": "Johann-Lange-Stra\u00dfe",
        "Name": "",
        "Internet": "unbekannt"
      }
    },
    {
      "geometry": {
        "type": "Point",
        "coordinates": [
          8.9352285,
          53.0680765
        ]
      },
      "type": "Feature",
      "properties": {
        "Tr\u00e4ger": "ASB",
        "marker-color": "7d1619",
        "Adresse": "Ellener Dorfstra\u00dfe",
        "Name": "",
        "Internet": "unbekannt"
      }
    },
    {
      "geometry": {
        "type": "Point",
        "coordinates": [
          8.8299606,
          53.0347045
        ]
      },
      "type": "Feature",
      "properties": {
        "Tr\u00e4ger": "AWO",
        "marker-color": "7d1619",
        "Adresse": "Alfred-Faust-Stra\u00dfe 15",
        "Name": "Erstaufnahme (ZAST)",
        "Internet": "unbekannt"
      }
    },
    {
      "geometry": {
        "type": "Point",
        "coordinates": [
          8.9186018,
          53.0387251
        ]
      },
      "type": "Feature",
      "properties": {
        "Tr\u00e4ger": "AWO",
        "marker-color": "7d1619",
        "Adresse": "Arberger Heerstra\u00dfe",
        "Name": "",
        "Internet": "unbekannt"
      }
    },
    {
      "geometry": {
        "type": "Point",
        "coordinates": [
          8.865213,
          53.069429
        ]
      },
      "type": "Feature",
      "properties": {
        "Tr\u00e4ger": "AWO",
        "marker-color": "7d1619",
        "Adresse": "Ludwig-Quidde-Stra\u00dfe",
        "Name": "",
        "Internet": "unbekannt"
      }
    },
    {
      "geometry": {
        "type": "Point",
        "coordinates": [
          8.751348,
          53.1142824
        ]
      },
      "type": "Feature",
      "properties": {
        "Tr\u00e4ger": "AWO",
        "marker-color": "7d1619",
        "Adresse": "Schiffbauerweg",
        "Name": "",
        "Internet": "unbekannt"
      }
    },
    {
      "geometry": {
        "type": "Point",
        "coordinates": [
          8.838231,
          53.073908
        ]
      },
      "type": "Feature",
      "properties": {
        "Tr\u00e4ger": "AWO",
        "marker-color": "7d1619",
        "Adresse": "",
        "Name": "Klinikum Mitte",
        "Internet": "unbekannt"
      }
    },
    {
      "geometry": {
        "type": "Point",
        "coordinates": [
          8.8041796,
          53.0665463
        ]
      },
      "type": "Feature",
      "properties": {
        "Tr\u00e4ger": "AWO",
        "marker-color": "7d1619",
        "Adresse": "Buntentorsteinweg 86/88",
        "Name": "Sonnenhaus",
        "Internet": "unbekannt"
      }
    },
    {
      "geometry": {
        "type": "Point",
        "coordinates": [
          8.824235,
          53.054245
        ]
      },
      "type": "Feature",
      "properties": {
        "Tr\u00e4ger": "AWO",
        "marker-color": "7d1619",
        "Adresse": "Huckelriede",
        "Name": "Scharnhorst-Kaserne",
        "Internet": "unbekannt"
      }
    },
    {
      "geometry": {
        "type": "Point",
        "coordinates": [
          8.7178459,
          53.0539032
        ]
      },
      "type": "Feature",
      "properties": {
        "Tr\u00e4ger": "AWO",
        "marker-color": "7d1619",
        "Adresse": "Luxemburger Stra\u00dfe",
        "Name": "Notaufnahme Luxemburger Stra\u00dfe",
        "Internet": "unbekannt"
      }
    },
    {
      "geometry": {
        "type": "Point",
        "coordinates": [
          8.8808828,
          53.0688951
        ]
      },
      "type": "Feature",
      "properties": {
        "Tr\u00e4ger": "AWO",
        "marker-color": "7d1619",
        "Adresse": "Bardowickstra\u00dfe 83a",
        "Name": "",
        "Internet": "unbekannt"
      }
    },
    {
      "geometry": {
        "type": "Point",
        "coordinates": [
          8.897477388381958,
          53.12794848020468
        ]
      },
      "type": "Feature",
      "properties": {
        "Tr\u00e4ger": "Caritas",
        "marker-color": "2c8537",
        "Adresse": "Hamfhofsweg",
        "Name": "Borgfelder Warft",
        "Internet": "versorgt"
      }
    },
    {
      "geometry": {
        "type": "Point",
        "coordinates": [
          8.87147,
          53.09756
        ]
      },
      "type": "Feature",
      "properties": {
        "Tr\u00e4ger": "Caritas",
        "marker-color": "91a537",
        "Adresse": "Berckstra\u00dfe 10",
        "Name": "ION Berckstra\u00dfe",
        "Internet": "in Arbeit"
      }
    },
    {
      "geometry": {
        "type": "Point",
        "coordinates": [
          8.957022,
          53.069346
        ]
      },
      "type": "Feature",
      "properties": {
        "Tr\u00e4ger": "Innere Mission",
        "marker-color": "7d1619",
        "Adresse": "Andernacher Stra\u00dfe",
        "Name": "",
        "Internet": "unbekannt"
      }
    },
    {
      "geometry": {
        "type": "Point",
        "coordinates": [
          8.81136,
          53.08057
        ]
      },
      "type": "Feature",
      "properties": {
        "Tr\u00e4ger": "Innere Mission",
        "marker-color": "7d1619",
        "Adresse": "Herdentorsteinweg 44/45",
        "Name": "Bremen-Mitte",
        "Internet": "unbekannt"
      }
    },
    {
      "geometry": {
        "type": "Point",
        "coordinates": [
          8.769911,
          53.094041
        ]
      },
      "type": "Feature",
      "properties": {
        "Tr\u00e4ger": "Innere Mission",
        "marker-color": "7d1619",
        "Adresse": "Konsul-Smidt-Stra\u00dfe/\u00dcberseetor",
        "Name": "\u00dcberseetor",
        "Internet": "unbekannt"
      }
    },
    {
      "geometry": {
        "type": "Point",
        "coordinates": [
          8.8785508,
          53.0815546
        ]
      },
      "type": "Feature",
      "properties": {
        "Tr\u00e4ger": "Innere Mission",
        "marker-color": "7d1619",
        "Adresse": "In der Vahr 76",
        "Name": "Polizeipr\u00e4sidium in der Vahr",
        "Internet": "unbekannt"
      }
    },
    {
      "geometry": {
        "type": "Point",
        "coordinates": [
          8.9600962,
          53.0688545
        ]
      },
      "type": "Feature",
      "properties": {
        "Tr\u00e4ger": "Innere Mission",
        "marker-color": "7d1619",
        "Adresse": "Andernacher Stra\u00dfe",
        "Name": "",
        "Internet": "unbekannt"
      }
    },
    {
      "geometry": {
        "type": "Point",
        "coordinates": [
          8.857040405273438,
          53.11142636130284
        ]
      },
      "type": "Feature",
      "properties": {
        "Tr\u00e4ger": "",
        "marker-color": "2c8537",
        "Adresse": "",
        "Name": "Fallturm",
        "Internet": "versorgt"
      }
    },
    {
      "geometry": {
        "type": "Point",
        "coordinates": [
          8.849283456802368,
          53.10273134870468
        ]
      },
      "type": "Feature",
      "properties": {
        "Tr\u00e4ger": "",
        "marker-color": "2c8537",
        "Adresse": "",
        "Name": "Uni NW1",
        "Internet": "versorgt"
      }
    },
    {
      "geometry": {
        "type": "Point",
        "coordinates": [
          8.7664927,
          53.0766477
        ]
      },
      "type": "Feature",
      "properties": {
        "Tr\u00e4ger": "",
        "marker-color": "2c8537",
        "Adresse": "Hermann-Ritter-Stra\u00dfe",
        "Name": "Brinkmann-Produktionshalle",
        "Internet": "versorgt"
      }
    },
    {
      "geometry": {
        "type": "Point",
        "coordinates": [
          8.825449,
          53.060794
        ]
      },
      "type": "Feature",
      "properties": {
        "Tr\u00e4ger": "",
        "marker-color": "7d1619",
        "Adresse": "",
        "Name": "Stadtwerder",
        "Internet": "unbekannt"
      }
    }
  ]
}
